[
    {
        "id": "1",
        "division_id": "3",
        "name": "Dhaka",
        "bn_name": "ঢাকা",
        "lat": "23.7115253",
        "long": "90.4111451"
    },
    {
        "id": "2",
        "division_id": "3",
        "name": "Faridpur",
        "bn_name": "ফরিদপুর",
        "lat": "23.6070822",
        "long": "89.8429406"
    },
    {
        "id": "3",
        "division_id": "3",
        "name": "Gazipur",
        "bn_name": "গাজীপুর",
        "lat": "24.0022858",
        "long": "90.4264283"
    },
    {
        "id": "4",
        "division_id": "3",
        "name": "Gopalganj",
        "bn_name": "গোপালগঞ্জ",
        "lat": "23.0050857",
        "long": "89.8266059"
    },
    {
        "id": "5",
        "division_id": "8",
        "name": "Jamalpur",
        "bn_name": "জামালপুর",
        "lat": "24.937533",
        "long": "89.937775"
    },
    {
        "id": "6",
        "division_id": "3",
        "name": "Kishoreganj",
        "bn_name": "কিশোরগঞ্জ",
        "lat": "24.444937",
        "long": "90.776575"
    },
    {
        "id": "7",
        "division_id": "3",
        "name": "Madaripur",
        "bn_name": "মাদারীপুর",
        "lat": "23.164102",
        "long": "90.1896805"
    },
    {
        "id": "8",
        "division_id": "3",
        "name": "Manikganj",
        "bn_name": "মানিকগঞ্জ",
        "lat": "23.8644",
        "long": "90.0047"
    },
    {
        "id": "9",
        "division_id": "3",
        "name": "Munshiganj",
        "bn_name": "মুন্সিগঞ্জ",
        "lat": "23.5422",
        "long": "90.5305"
    },
    {
        "id": "10",
        "division_id": "8",
        "name": "Mymensingh",
        "bn_name": "ময়মনসিংহ",
        "lat": "24.7471",
        "long": "90.4203"
    },
    {
        "id": "11",
        "division_id": "3",
        "name": "Narayanganj",
        "bn_name": "নারায়াণগঞ্জ",
        "lat": "23.63366",
        "long": "90.496482"
    },
    {
        "id": "12",
        "division_id": "3",
        "name": "Narsingdi",
        "bn_name": "নরসিংদী",
        "lat": "23.932233",
        "long": "90.71541"
    },
    {
        "id": "13",
        "division_id": "8",
        "name": "Netrokona",
        "bn_name": "নেত্রকোণা",
        "lat": "24.870955",
        "long": "90.727887"
    },
    {
        "id": "14",
        "division_id": "3",
        "name": "Rajbari",
        "bn_name": "রাজবাড়ি",
        "lat": "23.7574305",
        "long": "89.6444665"
    },
    {
        "id": "15",
        "division_id": "3",
        "name": "Shariatpur",
        "bn_name": "শরীয়তপুর",
        "lat": "23.2423",
        "long": "90.4348"
    },
    {
        "id": "16",
        "division_id": "8",
        "name": "Sherpur",
        "bn_name": "শেরপুর",
        "lat": "25.0204933",
        "long": "90.0152966"
    },
    {
        "id": "17",
        "division_id": "3",
        "name": "Tangail",
        "bn_name": "টাঙ্গাইল",
        "lat": "24.2513",
        "long": "89.9167"
    },
    {
        "id": "18",
        "division_id": "5",
        "name": "Bogura",
        "bn_name": "বগুড়া",
        "lat": "24.8465228",
        "long": "89.377755"
    },
    {
        "id": "19",
        "division_id": "5",
        "name": "Joypurhat",
        "bn_name": "জয়পুরহাট",
        "lat": "25.0968",
        "long": "89.0227"
    },
    {
        "id": "20",
        "division_id": "5",
        "name": "Naogaon",
        "bn_name": "নওগাঁ",
        "lat": "24.7936",
        "long": "88.9318"
    },
    {
        "id": "21",
        "division_id": "5",
        "name": "Natore",
        "bn_name": "নাটোর",
        "lat": "24.420556",
        "long": "89.000282"
    },
    {
        "id": "22",
        "division_id": "5",
        "name": "Nawabganj",
        "bn_name": "নবাবগঞ্জ",
        "lat": "24.5965034",
        "long": "88.2775122"
    },
    {
        "id": "23",
        "division_id": "5",
        "name": "Pabna",
        "bn_name": "পাবনা",
        "lat": "23.998524",
        "long": "89.233645"
    },
    {
        "id": "24",
        "division_id": "5",
        "name": "Rajshahi",
        "bn_name": "রাজশাহী",
        "lat": "24.3745",
        "long": "88.6042"
    },
    {
        "id": "25",
        "division_id": "5",
        "name": "Sirajgonj",
        "bn_name": "সিরাজগঞ্জ",
        "lat": "24.4533978",
        "long": "89.7006815"
    },
    {
        "id": "26",
        "division_id": "6",
        "name": "Dinajpur",
        "bn_name": "দিনাজপুর",
        "lat": "25.6217061",
        "long": "88.6354504"
    },
    {
        "id": "27",
        "division_id": "6",
        "name": "Gaibandha",
        "bn_name": "গাইবান্ধা",
        "lat": "25.328751",
        "long": "89.528088"
    },
    {
        "id": "28",
        "division_id": "6",
        "name": "Kurigram",
        "bn_name": "কুড়িগ্রাম",
        "lat": "25.805445",
        "long": "89.636174"
    },
    {
        "id": "29",
        "division_id": "6",
        "name": "Lalmonirhat",
        "bn_name": "lalmonirhat"
    }
]